$GPRMC,133654,A,3614.3030,N,11501.4600,W,0,0,150320,0,E*7F
$GPGGA,133654,3614.3030,N,11501.4600,W,1,,,558,M,,,,0*0B
$GPRMC,134647,A,3614.3061,N,11501.4618,W,0,312,150320,0,E*77
$GPGGA,134647,3614.3061,N,11501.4618,W,1,,,559,M,,,,0*02
$GPRMC,141038,A,3614.3055,N,11501.4644,W,0,310,150320,0,E*77
$GPGGA,141038,3614.3055,N,11501.4644,W,1,,,557,M,,,,0*0E
$GPRMC,142512,A,3613.7707,N,11501.9829,W,12,221,150320,0,E*42
$GPGGA,142512,3613.7707,N,11501.9829,W,1,,,554,M,,,,0*08
$GPRMC,143155,A,3613.8931,N,11502.4922,W,100,42,150320,0,E*41
$GPGGA,143155,3613.8931,N,11502.4922,W,1,,,553,M,,,,0*09
$GPRMC,143205,A,3614.1444,N,11502.2198,W,138,41,150320,0,E*41
$GPGGA,143205,3614.1444,N,11502.2198,W,1,,,555,M,,,,0*07
$GPRMC,143215,A,3614.4607,N,11501.8796,W,157,41,150320,0,E*48
$GPGGA,143215,3614.4607,N,11501.8796,W,1,,,597,M,,,,0*09
$GPRMC,143225,A,3614.7919,N,11501.5183,W,162,42,150320,0,E*42
$GPGGA,143225,3614.7919,N,11501.5183,W,1,,,697,M,,,,0*05
$GPRMC,143235,A,3615.1421,N,11501.1284,W,174,43,150320,0,E*44
$GPGGA,143235,3615.1421,N,11501.1284,W,1,,,777,M,,,,0*0A
$GPRMC,143245,A,3615.5068,N,11500.7195,W,180,40,150320,0,E*42
$GPGGA,143245,3615.5068,N,11500.7195,W,1,,,880,M,,,,0*03
$GPRMC,143255,A,3615.8918,N,11500.3253,W,180,39,150320,0,E*43
$GPGGA,143255,3615.8918,N,11500.3253,W,1,,,1008,M,,,,0*35
$GPRMC,143305,A,3616.2881,N,11459.9368,W,184,38,150320,0,E*44
$GPGGA,143305,3616.2881,N,11459.9368,W,1,,,1127,M,,,,0*3B
$GPRMC,143315,A,3616.6999,N,11459.5410,W,192,38,150320,0,E*4A
$GPGGA,143315,3616.6999,N,11459.5410,W,1,,,1231,M,,,,0*36
$GPRMC,143325,A,3617.1366,N,11459.1232,W,200,38,150320,0,E*4F
$GPGGA,143325,3617.1366,N,11459.1232,W,1,,,1359,M,,,,0*34
$GPRMC,143335,A,3617.5761,N,11458.6952,W,200,38,150320,0,E*42
$GPGGA,143335,3617.5761,N,11458.6952,W,1,,,1530,M,,,,0*30
$GPRMC,143345,A,3618.0247,N,11458.2667,W,206,37,150320,0,E*4A
$GPGGA,143345,3618.0247,N,11458.2667,W,1,,,1671,M,,,,0*37
$GPRMC,143355,A,3618.4907,N,11457.8416,W,208,34,150320,0,E*4C
$GPGGA,143355,3618.4907,N,11457.8416,W,1,,,1819,M,,,,0*3C
$GPRMC,143405,A,3619.0345,N,11457.5658,W,217,8,150320,0,E*73
$GPGGA,143405,3619.0345,N,11457.5658,W,1,,,1958,M,,,,0*36
$GPRMC,143416,A,3619.6326,N,11457.6480,W,218,338,150320,0,E*79
$GPGGA,143416,3619.6326,N,11457.6480,W,1,,,2109,M,,,,0*3C
$GPRMC,143426,A,3620.0927,N,11458.0890,W,204,306,150320,0,E*79
$GPGGA,143426,3620.0927,N,11458.0890,W,1,,,2277,M,,,,0*36
$GPRMC,143436,A,3620.2928,N,11458.6969,W,181,277,150320,0,E*7D
$GPGGA,143436,3620.2928,N,11458.6969,W,1,,,2482,M,,,,0*37
$GPRMC,143446,A,3620.2314,N,11459.2932,W,170,249,150320,0,E*77
$GPGGA,143446,3620.2314,N,11459.2932,W,1,,,2626,M,,,,0*32
$GPRMC,143456,A,3620.0427,N,11459.8446,W,179,244,150320,0,E*73
$GPGGA,143456,3620.0427,N,11459.8446,W,1,,,2723,M,,,,0*36
$GPRMC,143506,A,3619.8135,N,11500.4123,W,191,243,150320,0,E*75
$GPGGA,143506,3619.8135,N,11500.4123,W,1,,,2792,M,,,,0*3B
$GPRMC,143516,A,3619.5521,N,11501.0120,W,205,242,150320,0,E*71
$GPGGA,143516,3619.5521,N,11501.0120,W,1,,,2834,M,,,,0*33
$GPRMC,143516,A,3619.5403,N,11501.0392,W,206,242,150320,0,E*78
$GPGGA,143516,3619.5403,N,11501.0392,W,1,,,2836,M,,,,0*3B
$GPRMC,143526,A,3619.3405,N,11501.6613,W,199,256,150320,0,E*71
$GPGGA,143526,3619.3405,N,11501.6613,W,1,,,2983,M,,,,0*3D
$GPRMC,143536,A,3619.2858,N,11502.3434,W,204,274,150320,0,E*73
$GPGGA,143536,3619.2858,N,11502.3434,W,1,,,3124,M,,,,0*3C
$GPRMC,143546,A,3619.3697,N,11503.0561,W,213,280,150320,0,E*76
$GPGGA,143546,3619.3697,N,11503.0561,W,1,,,3197,M,,,,0*3C
$GPRMC,143556,A,3619.4685,N,11503.7956,W,220,280,150320,0,E*7C
$GPGGA,143556,3619.4685,N,11503.7956,W,1,,,3258,M,,,,0*36
$GPRMC,143606,A,3619.5718,N,11504.5585,W,230,279,150320,0,E*7E
$GPGGA,143606,3619.5718,N,11504.5585,W,1,,,3300,M,,,,0*3F
$GPRMC,143616,A,3619.6813,N,11505.3716,W,247,280,150320,0,E*71
$GPGGA,143616,3619.6813,N,11505.3716,W,1,,,3342,M,,,,0*30
$GPRMC,143626,A,3619.8050,N,11506.2321,W,260,280,150320,0,E*74
$GPGGA,143626,3619.8050,N,11506.2321,W,1,,,3467,M,,,,0*30
$GPRMC,143636,A,3619.9367,N,11507.1351,W,274,280,150320,0,E*73
$GPGGA,143636,3619.9367,N,11507.1351,W,1,,,3588,M,,,,0*32
$GPRMC,143646,A,3620.0708,N,11508.0908,W,288,280,150320,0,E*71
$GPGGA,143646,3620.0708,N,11508.0908,W,1,,,3695,M,,,,0*3C
$GPRMC,143656,A,3620.1853,N,11509.0882,W,294,275,150320,0,E*75
$GPGGA,143656,3620.1853,N,11509.0882,W,1,,,3829,M,,,,0*36
$GPRMC,143706,A,3620.2047,N,11510.1112,W,299,270,150320,0,E*7E
$GPGGA,143706,3620.2047,N,11510.1112,W,1,,,3977,M,,,,0*3F
$GPRMC,143716,A,3620.1708,N,11511.1482,W,305,267,150320,0,E*7F
$GPGGA,143716,3620.1708,N,11511.1482,W,1,,,4120,M,,,,0*31
$GPRMC,143726,A,3620.1720,N,11512.2042,W,308,272,150320,0,E*77
$GPGGA,143726,3620.1720,N,11512.2042,W,1,,,4303,M,,,,0*33
$GPRMC,143736,A,3620.2130,N,11513.2701,W,309,273,150320,0,E*73
$GPGGA,143736,3620.2130,N,11513.2701,W,1,,,4510,M,,,,0*33
$GPRMC,143746,A,3620.2442,N,11514.3365,W,312,271,150320,0,E*7C
$GPGGA,143746,3620.2442,N,11514.3365,W,1,,,4683,M,,,,0*3D
$GPRMC,143756,A,3620.2661,N,11515.4202,W,320,271,150320,0,E*79
$GPGGA,143756,3620.2661,N,11515.4202,W,1,,,4824,M,,,,0*3A
$GPRMC,143806,A,3620.2850,N,11516.5452,W,331,271,150320,0,E*7E
$GPGGA,143806,3620.2850,N,11516.5452,W,1,,,4919,M,,,,0*32
$GPRMC,143816,A,3620.3004,N,11517.7047,W,339,271,150320,0,E*7C
$GPGGA,143816,3620.3004,N,11517.7047,W,1,,,4974,M,,,,0*33
$GPRMC,143826,A,3620.3073,N,11518.8813,W,347,270,150320,0,E*7E
$GPGGA,143826,3620.3073,N,11518.8813,W,1,,,4954,M,,,,0*3B
$GPRMC,143836,A,3620.3047,N,11520.0895,W,353,269,150320,0,E*78
$GPGGA,143836,3620.3047,N,11520.0895,W,1,,,4950,M,,,,0*34
$GPRMC,143846,A,3620.2883,N,11521.3181,W,363,269,150320,0,E*73
$GPGGA,143846,3620.2883,N,11521.3181,W,1,,,4919,M,,,,0*31
$GPRMC,143857,A,3620.2681,N,11522.5953,W,376,269,150320,0,E*79
$GPGGA,143857,3620.2681,N,11522.5953,W,1,,,4926,M,,,,0*33
$GPRMC,143907,A,3620.2444,N,11523.9040,W,386,268,150320,0,E*7E
$GPGGA,143907,3620.2444,N,11523.9040,W,1,,,4935,M,,,,0*38
$GPRMC,143917,A,3620.2078,N,11525.2520,W,394,268,150320,0,E*79
$GPGGA,143917,3620.2078,N,11525.2520,W,1,,,4944,M,,,,0*3A
$GPRMC,143927,A,3620.1642,N,11526.6241,W,399,268,150320,0,E*7C
$GPGGA,143927,3620.1642,N,11526.6241,W,1,,,4951,M,,,,0*36
$GPRMC,143937,A,3620.1466,N,11528.0013,W,400,273,150320,0,E*79
$GPGGA,143937,3620.1466,N,11528.0013,W,1,,,4959,M,,,,0*36
$GPRMC,143947,A,3620.2851,N,11529.3776,W,401,279,150320,0,E*78
$GPGGA,143947,3620.2851,N,11529.3776,W,1,,,4954,M,,,,0*31
$GPRMC,143957,A,3620.4765,N,11530.7446,W,401,280,150320,0,E*7D
$GPGGA,143957,3620.4765,N,11530.7446,W,1,,,4956,M,,,,0*30
$GPRMC,144007,A,3620.6620,N,11532.1031,W,401,279,150320,0,E*72
$GPGGA,144007,3620.6620,N,11532.1031,W,1,,,4967,M,,,,0*3B
$GPRMC,144017,A,3620.8304,N,11533.4725,W,401,278,150320,0,E*79
$GPGGA,144017,3620.8304,N,11533.4725,W,1,,,4974,M,,,,0*33
$GPRMC,144027,A,3620.9889,N,11534.8376,W,401,278,150320,0,E*7C
$GPGGA,144027,3620.9889,N,11534.8376,W,1,,,4976,M,,,,0*34
$GPRMC,144037,A,3621.1433,N,11536.2018,W,400,278,150320,0,E*7B
$GPGGA,144037,3621.1433,N,11536.2018,W,1,,,4963,M,,,,0*36
$GPRMC,144047,A,3621.2909,N,11537.5599,W,398,277,150320,0,E*78
$GPGGA,144047,3621.2909,N,11537.5599,W,1,,,4957,M,,,,0*3B
$GPRMC,144057,A,3621.4275,N,11538.9108,W,395,277,150320,0,E*7D
$GPGGA,144057,3621.4275,N,11538.9108,W,1,,,4950,M,,,,0*34
$GPRMC,144107,A,3621.5570,N,11540.2596,W,390,277,150320,0,E*78
$GPGGA,144107,3621.5570,N,11540.2596,W,1,,,4947,M,,,,0*32
$GPRMC,144117,A,3621.7839,N,11541.5765,W,391,288,150320,0,E*72
$GPGGA,144117,3621.7839,N,11541.5765,W,1,,,4946,M,,,,0*38
$GPRMC,144123,A,3622.0043,N,11542.2815,W,392,294,150320,0,E*76
$GPGGA,144123,3622.0043,N,11542.2815,W,1,,,4945,M,,,,0*31
$GPRMC,144127,A,3622.2216,N,11542.8163,W,394,299,150320,0,E*7B
$GPGGA,144127,3622.2216,N,11542.8163,W,1,,,4949,M,,,,0*3B
$GPRMC,144137,A,3622.8044,N,11543.9776,W,397,304,150320,0,E*71
$GPGGA,144137,3622.8044,N,11543.9776,W,1,,,4947,M,,,,0*39
$GPRMC,144147,A,3623.3944,N,11545.1268,W,395,300,150320,0,E*77
$GPGGA,144147,3623.3944,N,11545.1268,W,1,,,4938,M,,,,0*31
$GPRMC,144157,A,3623.8912,N,11546.3407,W,391,294,150320,0,E*78
$GPGGA,144157,3623.8912,N,11546.3407,W,1,,,4942,M,,,,0*3B
$GPRMC,144207,A,3624.3379,N,11547.5688,W,393,295,150320,0,E*74
$GPGGA,144207,3624.3379,N,11547.5688,W,1,,,4937,M,,,,0*36
$GPRMC,144217,A,3624.8041,N,11548.8027,W,394,295,150320,0,E*70
$GPGGA,144217,3624.8041,N,11548.8027,W,1,,,4943,M,,,,0*36
$GPRMC,144227,A,3625.2706,N,11550.0407,W,395,295,150320,0,E*7A
$GPGGA,144227,3625.2706,N,11550.0407,W,1,,,4945,M,,,,0*3B
$GPRMC,144237,A,3625.7399,N,11551.2749,W,398,295,150320,0,E*7B
$GPGGA,144237,3625.7399,N,11551.2749,W,1,,,4941,M,,,,0*33
$GPRMC,144247,A,3626.2148,N,11552.5142,W,399,295,150320,0,E*7C
$GPGGA,144247,3626.2148,N,11552.5142,W,1,,,4935,M,,,,0*36
$GPRMC,144257,A,3626.6942,N,11553.7641,W,400,296,150320,0,E*78
$GPGGA,144257,3626.6942,N,11553.7641,W,1,,,4937,M,,,,0*34
$GPRMC,144307,A,3627.1986,N,11554.9936,W,402,298,150320,0,E*78
$GPGGA,144307,3627.1986,N,11554.9936,W,1,,,4943,M,,,,0*3B
$GPRMC,144317,A,3627.7342,N,11556.2104,W,404,299,150320,0,E*7A
$GPGGA,144317,3627.7342,N,11556.2104,W,1,,,4944,M,,,,0*39
$GPRMC,144327,A,3628.2799,N,11557.4370,W,405,299,150320,0,E*76
$GPGGA,144327,3628.2799,N,11557.4370,W,1,,,4940,M,,,,0*30
$GPRMC,144337,A,3628.8279,N,11558.6570,W,406,299,150320,0,E*7E
$GPGGA,144337,3628.8279,N,11558.6570,W,1,,,4940,M,,,,0*3B
$GPRMC,144348,A,3629.3819,N,11559.8869,W,407,299,150320,0,E*7B
$GPGGA,144348,3629.3819,N,11559.8869,W,1,,,4944,M,,,,0*3B
$GPRMC,144358,A,3629.9293,N,11601.1144,W,408,299,150320,0,E*76
$GPGGA,144358,3629.9293,N,11601.1144,W,1,,,4947,M,,,,0*3A
$GPRMC,144408,A,3630.4768,N,11602.3466,W,409,299,150320,0,E*75
$GPGGA,144408,3630.4768,N,11602.3466,W,1,,,4943,M,,,,0*3C
$GPRMC,144418,A,3631.0332,N,11603.5806,W,411,299,150320,0,E*7E
$GPGGA,144418,3631.0332,N,11603.5806,W,1,,,4938,M,,,,0*32
$GPRMC,144428,A,3631.5967,N,11604.8215,W,410,299,150320,0,E*71
$GPGGA,144428,3631.5967,N,11604.8215,W,1,,,4938,M,,,,0*3C
$GPRMC,144438,A,3632.1609,N,11606.0590,W,410,300,150320,0,E*71
$GPGGA,144438,3632.1609,N,11606.0590,W,1,,,4936,M,,,,0*33
$GPRMC,144448,A,3632.7213,N,11607.2939,W,408,299,150320,0,E*7B
$GPGGA,144448,3632.7213,N,11607.2939,W,1,,,4940,M,,,,0*30
$GPRMC,144458,A,3633.2698,N,11608.5188,W,406,299,150320,0,E*7D
$GPGGA,144458,3633.2698,N,11608.5188,W,1,,,4944,M,,,,0*3C
$GPRMC,144508,A,3633.8277,N,11609.7460,W,407,300,150320,0,E*76
$GPGGA,144508,3633.8277,N,11609.7460,W,1,,,4938,M,,,,0*3C
$GPRMC,144518,A,3634.3952,N,11610.9679,W,407,300,150320,0,E*7B
$GPGGA,144518,3634.3952,N,11610.9679,W,1,,,4937,M,,,,0*3E
$GPRMC,144528,A,3634.9289,N,11612.2031,W,401,294,150320,0,E*76
$GPGGA,144528,3634.9289,N,11612.2031,W,1,,,4941,M,,,,0*38
$GPRMC,144531,A,3635.0456,N,11612.5717,W,399,289,150320,0,E*7C
$GPGGA,144531,3635.0456,N,11612.5717,W,1,,,4936,M,,,,0*38
$GPRMC,144538,A,3635.2289,N,11613.5225,W,392,278,150320,0,E*73
$GPGGA,144538,3635.2289,N,11613.5225,W,1,,,4940,M,,,,0*33
$GPRMC,144548,A,3635.2766,N,11614.8579,W,387,270,150320,0,E*78
$GPGGA,144548,3635.2766,N,11614.8579,W,1,,,4943,M,,,,0*37
$GPRMC,144558,A,3635.2594,N,11616.2002,W,388,269,150320,0,E*70
$GPGGA,144558,3635.2594,N,11616.2002,W,1,,,4928,M,,,,0*35
$GPRMC,144608,A,3635.2498,N,11617.5388,W,389,270,150320,0,E*75
$GPGGA,144608,3635.2498,N,11617.5388,W,1,,,4920,M,,,,0*31
$GPRMC,144618,A,3635.2425,N,11618.8895,W,390,270,150320,0,E*7F
$GPGGA,144618,3635.2425,N,11618.8895,W,1,,,4919,M,,,,0*39
$GPRMC,144628,A,3635.2374,N,11620.2426,W,390,270,150320,0,E*7A
$GPGGA,144628,3635.2374,N,11620.2426,W,1,,,4919,M,,,,0*3C
$GPRMC,144638,A,3635.2358,N,11621.5875,W,390,270,150320,0,E*79
$GPGGA,144638,3635.2358,N,11621.5875,W,1,,,4924,M,,,,0*31
$GPRMC,144648,A,3635.2325,N,11622.9387,W,390,270,150320,0,E*7D
$GPGGA,144648,3635.2325,N,11622.9387,W,1,,,4932,M,,,,0*32
$GPRMC,144658,A,3635.2315,N,11624.2828,W,390,270,150320,0,E*7C
$GPGGA,144658,3635.2315,N,11624.2828,W,1,,,4931,M,,,,0*30
$GPRMC,144708,A,3635.2241,N,11625.6297,W,391,270,150320,0,E*72
$GPGGA,144708,3635.2241,N,11625.6297,W,1,,,4927,M,,,,0*38
$GPRMC,144718,A,3635.2178,N,11626.9875,W,392,270,150320,0,E*73
$GPGGA,144718,3635.2178,N,11626.9875,W,1,,,4918,M,,,,0*36
$GPRMC,144728,A,3635.2173,N,11628.3385,W,392,270,150320,0,E*7B
$GPGGA,144728,3635.2173,N,11628.3385,W,1,,,4913,M,,,,0*35
$GPRMC,144738,A,3635.2201,N,11629.6854,W,390,270,150320,0,E*7D
$GPGGA,144738,3635.2201,N,11629.6854,W,1,,,4915,M,,,,0*37
$GPRMC,144748,A,3635.2217,N,11631.0347,W,388,270,150320,0,E*72
$GPGGA,144748,3635.2217,N,11631.0347,W,1,,,4920,M,,,,0*37
$GPRMC,144758,A,3635.2246,N,11632.3781,W,387,270,150320,0,E*76
$GPGGA,144758,3635.2246,N,11632.3781,W,1,,,4928,M,,,,0*34
$GPRMC,144808,A,3635.2334,N,11633.7182,W,386,270,150320,0,E*79
$GPGGA,144808,3635.2334,N,11633.7182,W,1,,,4931,M,,,,0*32
$GPRMC,144818,A,3635.2420,N,11635.0479,W,386,270,150320,0,E*7A
$GPGGA,144818,3635.2420,N,11635.0479,W,1,,,4926,M,,,,0*37
$GPRMC,144829,A,3635.2542,N,11636.3853,W,386,271,150320,0,E*78
$GPGGA,144829,3635.2542,N,11636.3853,W,1,,,4923,M,,,,0*31
$GPRMC,144839,A,3635.2681,N,11637.7153,W,386,271,150320,0,E*79
$GPGGA,144839,3635.2681,N,11637.7153,W,1,,,4921,M,,,,0*32
$GPRMC,144849,A,3635.2837,N,11639.0532,W,386,271,150320,0,E*77
$GPGGA,144849,3635.2837,N,11639.0532,W,1,,,4920,M,,,,0*3D
$GPRMC,144859,A,3635.2956,N,11640.3897,W,385,270,150320,0,E*7D
$GPGGA,144859,3635.2956,N,11640.3897,W,1,,,4924,M,,,,0*31
$GPRMC,144909,A,3635.3030,N,11641.7230,W,384,270,150320,0,E*72
$GPGGA,144909,3635.3030,N,11641.7230,W,1,,,4927,M,,,,0*3C
$GPRMC,144919,A,3635.3101,N,11643.0471,W,384,270,150320,0,E*76
$GPGGA,144919,3635.3101,N,11643.0471,W,1,,,4929,M,,,,0*36
$GPRMC,144929,A,3635.3194,N,11644.3811,W,385,270,150320,0,E*76
$GPGGA,144929,3635.3194,N,11644.3811,W,1,,,4923,M,,,,0*3D
$GPRMC,144939,A,3635.3252,N,11645.7166,W,385,270,150320,0,E*72
$GPGGA,144939,3635.3252,N,11645.7166,W,1,,,4918,M,,,,0*31
$GPRMC,144949,A,3635.3270,N,11647.0418,W,384,270,150320,0,E*7D
$GPGGA,144949,3635.3270,N,11647.0418,W,1,,,4920,M,,,,0*34
$GPRMC,144959,A,3635.3343,N,11648.3728,W,384,271,150320,0,E*70
$GPGGA,144959,3635.3343,N,11648.3728,W,1,,,4922,M,,,,0*3A
$GPRMC,145009,A,3635.3482,N,11649.6940,W,383,271,150320,0,E*74
$GPGGA,145009,3635.3482,N,11649.6940,W,1,,,4920,M,,,,0*3B
$GPRMC,145019,A,3635.3683,N,11651.0218,W,383,271,150320,0,E*7F
$GPGGA,145019,3635.3683,N,11651.0218,W,1,,,4919,M,,,,0*3A
$GPRMC,145029,A,3635.3888,N,11652.3469,W,382,271,150320,0,E*78
$GPGGA,145029,3635.3888,N,11652.3469,W,1,,,4922,M,,,,0*34
$GPRMC,145039,A,3635.4125,N,11653.6695,W,381,271,150320,0,E*76
$GPGGA,145039,3635.4125,N,11653.6695,W,1,,,4920,M,,,,0*3B
$GPRMC,145049,A,3635.4379,N,11654.9903,W,381,271,150320,0,E*72
$GPGGA,145049,3635.4379,N,11654.9903,W,1,,,4918,M,,,,0*34
$GPRMC,145059,A,3635.4615,N,11656.3007,W,380,271,150320,0,E*78
$GPGGA,145059,3635.4615,N,11656.3007,W,1,,,4918,M,,,,0*3F
$GPRMC,145109,A,3635.4801,N,11657.6173,W,379,271,150320,0,E*77
$GPGGA,145109,3635.4801,N,11657.6173,W,1,,,4916,M,,,,0*38
$GPRMC,145119,A,3635.4948,N,11658.9323,W,379,271,150320,0,E*7D
$GPGGA,145119,3635.4948,N,11658.9323,W,1,,,4919,M,,,,0*3D
$GPRMC,145129,A,3635.5046,N,11700.2469,W,380,270,150320,0,E*71
$GPGGA,145129,3635.5046,N,11700.2469,W,1,,,4916,M,,,,0*39
$GPRMC,145133,A,3635.5076,N,11700.7623,W,380,270,150320,0,E*70
$GPGGA,145133,3635.5076,N,11700.7623,W,1,,,4913,M,,,,0*3D
$GPRMC,145139,A,3635.5109,N,11701.5565,W,380,270,150320,0,E*71
$GPGGA,145139,3635.5109,N,11701.5565,W,1,,,4912,M,,,,0*3D
$GPRMC,145149,A,3635.5220,N,11702.8752,W,380,271,150320,0,E*77
$GPGGA,145149,3635.5220,N,11702.8752,W,1,,,4917,M,,,,0*3F
$GPRMC,145159,A,3635.5348,N,11704.1958,W,381,271,150320,0,E*73
$GPGGA,145159,3635.5348,N,11704.1958,W,1,,,4918,M,,,,0*35
$GPRMC,145210,A,3635.5473,N,11705.5203,W,383,271,150320,0,E*70
$GPGGA,145210,3635.5473,N,11705.5203,W,1,,,4915,M,,,,0*39
$GPRMC,145220,A,3635.5594,N,11706.8502,W,384,270,150320,0,E*75
$GPGGA,145220,3635.5594,N,11706.8502,W,1,,,4913,M,,,,0*3C
$GPRMC,145230,A,3635.5607,N,11708.1750,W,384,270,150320,0,E*7F
$GPGGA,145230,3635.5607,N,11708.1750,W,1,,,4909,M,,,,0*3D
$GPRMC,145240,A,3635.5592,N,11709.5063,W,381,269,150320,0,E*78
$GPGGA,145240,3635.5592,N,11709.5063,W,1,,,4910,M,,,,0*3F
$GPRMC,145250,A,3635.3950,N,11710.7861,W,374,250,150320,0,E*7D
$GPGGA,145250,3635.3950,N,11710.7861,W,1,,,4902,M,,,,0*39
$GPRMC,145300,A,3634.8398,N,11711.8578,W,373,224,150320,0,E*72
$GPGGA,145300,3634.8398,N,11711.8578,W,1,,,4917,M,,,,0*36
$GPRMC,145310,A,3633.9414,N,11712.5039,W,383,197,150320,0,E*7C
$GPGGA,145310,3633.9414,N,11712.5039,W,1,,,4933,M,,,,0*3A
$GPRMC,145320,A,3632.8579,N,11712.5688,W,401,169,150320,0,E*75
$GPGGA,145320,3632.8579,N,11712.5688,W,1,,,4936,M,,,,0*3A
$GPRMC,145330,A,3631.8109,N,11712.0131,W,418,146,150320,0,E*71
$GPGGA,145330,3631.8109,N,11712.0131,W,1,,,4937,M,,,,0*3A
$GPRMC,145340,A,3630.8947,N,11711.1130,W,423,140,150320,0,E*78
$GPGGA,145340,3630.8947,N,11711.1130,W,1,,,4920,M,,,,0*3B
$GPRMC,145350,A,3630.0009,N,11710.1576,W,426,139,150320,0,E*7E
$GPGGA,145350,3630.0009,N,11710.1576,W,1,,,4890,M,,,,0*3C
$GPRMC,145400,A,3629.1020,N,11709.1940,W,430,139,150320,0,E*78
$GPGGA,145400,3629.1020,N,11709.1940,W,1,,,4894,M,,,,0*39
$GPRMC,145410,A,3628.1975,N,11708.2207,W,432,139,150320,0,E*79
$GPGGA,145410,3628.1975,N,11708.2207,W,1,,,4911,M,,,,0*36
$GPRMC,145420,A,3627.2960,N,11707.2307,W,430,138,150320,0,E*7F
$GPGGA,145420,3627.2960,N,11707.2307,W,1,,,5010,M,,,,0*3A
$GPRMC,145430,A,3626.3929,N,11706.2468,W,430,139,150320,0,E*7D
$GPGGA,145430,3626.3929,N,11706.2468,W,1,,,5117,M,,,,0*3F
$GPRMC,145440,A,3625.4882,N,11705.2677,W,430,139,150320,0,E*71
$GPGGA,145440,3625.4882,N,11705.2677,W,1,,,5227,M,,,,0*33
$GPRMC,145450,A,3624.5834,N,11704.2787,W,433,138,150320,0,E*70
$GPGGA,145450,3624.5834,N,11704.2787,W,1,,,5346,M,,,,0*36
$GPRMC,145500,A,3623.6778,N,11703.2867,W,438,139,150320,0,E*7B
$GPGGA,145500,3623.6778,N,11703.2867,W,1,,,5477,M,,,,0*32
$GPRMC,145510,A,3622.7486,N,11702.2881,W,442,139,150320,0,E*7C
$GPGGA,145510,3622.7486,N,11702.2881,W,1,,,5624,M,,,,0*3C
$GPRMC,145520,A,3621.8084,N,11701.2847,W,446,139,150320,0,E*78
$GPGGA,145520,3621.8084,N,11701.2847,W,1,,,5786,M,,,,0*35
$GPRMC,145530,A,3620.8638,N,11700.2720,W,448,139,150320,0,E*78
$GPGGA,145530,3620.8638,N,11700.2720,W,1,,,5952,M,,,,0*3C
$GPRMC,145540,A,3619.9245,N,11659.2723,W,445,139,150320,0,E*79
$GPGGA,145540,3619.9245,N,11659.2723,W,1,,,6116,M,,,,0*3B
$GPRMC,145550,A,3619.0107,N,11658.2423,W,444,137,150320,0,E*79
$GPGGA,145550,3619.0107,N,11658.2423,W,1,,,6173,M,,,,0*37
$GPRMC,145600,A,3618.1138,N,11657.2038,W,440,137,150320,0,E*76
$GPGGA,145600,3618.1138,N,11657.2038,W,1,,,6249,M,,,,0*36
$GPRMC,145610,A,3617.2337,N,11656.1674,W,435,135,150320,0,E*7A
$GPGGA,145610,3617.2337,N,11656.1674,W,1,,,6351,M,,,,0*32
$GPRMC,145620,A,3616.3865,N,11655.1011,W,429,134,150320,0,E*7F
$GPGGA,145620,3616.3865,N,11655.1011,W,1,,,6470,M,,,,0*3F
$GPRMC,145630,A,3615.5602,N,11654.0417,W,424,133,150320,0,E*7C
$GPGGA,145630,3615.5602,N,11654.0417,W,1,,,6599,M,,,,0*30
$GPRMC,145640,A,3614.7629,N,11652.9794,W,420,132,150320,0,E*73
$GPGGA,145640,3614.7629,N,11652.9794,W,1,,,6716,M,,,,0*3F
$GPRMC,145650,A,3613.9808,N,11651.9063,W,422,132,150320,0,E*78
$GPGGA,145650,3613.9808,N,11651.9063,W,1,,,6764,M,,,,0*33
$GPRMC,145700,A,3613.2031,N,11650.8001,W,426,131,150320,0,E*76
$GPGGA,145700,3613.2031,N,11650.8001,W,1,,,6757,M,,,,0*3A
$GPRMC,145710,A,3612.4344,N,11649.6816,W,430,130,150320,0,E*7F
$GPGGA,145710,3612.4344,N,11649.6816,W,1,,,6762,M,,,,0*33
$GPRMC,145720,A,3611.6685,N,11648.5304,W,433,129,150320,0,E*74
$GPGGA,145720,3611.6685,N,11648.5304,W,1,,,6752,M,,,,0*30
$GPRMC,145730,A,3610.9037,N,11647.3795,W,435,129,150320,0,E*77
$GPGGA,145730,3610.9037,N,11647.3795,W,1,,,6741,M,,,,0*37
$GPRMC,145740,A,3610.1357,N,11646.2292,W,435,129,150320,0,E*7F
$GPGGA,145740,3610.1357,N,11646.2292,W,1,,,6748,M,,,,0*36
$GPRMC,145750,A,3609.3703,N,11645.0750,W,435,129,150320,0,E*7B
$GPGGA,145750,3609.3703,N,11645.0750,W,1,,,6761,M,,,,0*39
$GPRMC,145801,A,3608.5980,N,11643.9109,W,437,129,150320,0,E*75
$GPGGA,145801,3608.5980,N,11643.9109,W,1,,,6764,M,,,,0*30
$GPRMC,145811,A,3607.8322,N,11642.7534,W,435,129,150320,0,E*73
$GPGGA,145811,3607.8322,N,11642.7534,W,1,,,6758,M,,,,0*3B
$GPRMC,145821,A,3607.0717,N,11641.5939,W,431,129,150320,0,E*7E
$GPGGA,145821,3607.0717,N,11641.5939,W,1,,,6759,M,,,,0*33
$GPRMC,145831,A,3606.3186,N,11640.4447,W,427,129,150320,0,E*70
$GPGGA,145831,3606.3186,N,11640.4447,W,1,,,6760,M,,,,0*30
$GPRMC,145841,A,3605.5737,N,11639.3043,W,423,129,150320,0,E*73
$GPGGA,145841,3605.5737,N,11639.3043,W,1,,,6760,M,,,,0*37
$GPRMC,145851,A,3604.8419,N,11638.1802,W,419,129,150320,0,E*76
$GPGGA,145851,3604.8419,N,11638.1802,W,1,,,6761,M,,,,0*3A
$GPRMC,145901,A,3604.1142,N,11637.0569,W,416,128,150320,0,E*70
$GPGGA,145901,3604.1142,N,11637.0569,W,1,,,6764,M,,,,0*37
$GPRMC,145911,A,3603.3970,N,11635.9366,W,413,128,150320,0,E*7A
$GPGGA,145911,3603.3970,N,11635.9366,W,1,,,6770,M,,,,0*3D
$GPRMC,145921,A,3602.6860,N,11634.8209,W,411,128,150320,0,E*77
$GPGGA,145921,3602.6860,N,11634.8209,W,1,,,6771,M,,,,0*33
$GPRMC,145931,A,3601.9802,N,11633.7178,W,410,128,150320,0,E*72
$GPGGA,145931,3601.9802,N,11633.7178,W,1,,,6763,M,,,,0*34
$GPRMC,145941,A,3601.2694,N,11632.6023,W,414,128,150320,0,E*74
$GPGGA,145941,3601.2694,N,11632.6023,W,1,,,6690,M,,,,0*3B
$GPRMC,145951,A,3600.5513,N,11631.4880,W,419,129,150320,0,E*73
$GPGGA,145951,3600.5513,N,11631.4880,W,1,,,6583,M,,,,0*31
$GPRMC,150001,A,3559.8406,N,11630.3426,W,423,127,150320,0,E*7D
$GPGGA,150001,3559.8406,N,11630.3426,W,1,,,6491,M,,,,0*3A
$GPRMC,150011,A,3559.1141,N,11629.1946,W,419,131,150320,0,E*7C
$GPGGA,150011,3559.1141,N,11629.1946,W,1,,,6445,M,,,,0*3C
$GPRMC,150021,A,3558.3347,N,11628.1632,W,404,134,150320,0,E*7C
$GPGGA,150021,3558.3347,N,11628.1632,W,1,,,6537,M,,,,0*31
$GPRMC,150031,A,3557.5443,N,11627.1686,W,404,136,150320,0,E*75
$GPGGA,150031,3557.5443,N,11627.1686,W,1,,,6465,M,,,,0*3C
$GPRMC,150041,A,3556.7403,N,11626.2141,W,400,136,150320,0,E*7F
$GPGGA,150041,3556.7403,N,11626.2141,W,1,,,6471,M,,,,0*37
$GPRMC,150051,A,3555.9322,N,11625.2911,W,393,140,150320,0,E*75
$GPGGA,150051,3555.9322,N,11625.2911,W,1,,,6481,M,,,,0*3E
$GPRMC,150101,A,3555.0630,N,11624.4863,W,386,146,150320,0,E*7F
$GPGGA,150101,3555.0630,N,11624.4863,W,1,,,6476,M,,,,0*3E
$GPRMC,150111,A,3554.1447,N,11623.8124,W,380,152,150320,0,E*7E
$GPGGA,150111,3554.1447,N,11623.8124,W,1,,,6472,M,,,,0*38
$GPRMC,150121,A,3553.2098,N,11623.2293,W,376,153,150320,0,E*72
$GPGGA,150121,3553.2098,N,11623.2293,W,1,,,6472,M,,,,0*3C
$GPRMC,150131,A,3552.2821,N,11622.6397,W,376,152,150320,0,E*79
$GPGGA,150131,3552.2821,N,11622.6397,W,1,,,6464,M,,,,0*31
$GPRMC,150141,A,3551.3630,N,11622.0205,W,374,151,150320,0,E*7F
$GPGGA,150141,3551.3630,N,11622.0205,W,1,,,6461,M,,,,0*33
$GPRMC,150151,A,3550.4525,N,11621.3981,W,372,151,150320,0,E*7E
$GPGGA,150151,3550.4525,N,11621.3981,W,1,,,6462,M,,,,0*37
$GPRMC,150201,A,3549.5504,N,11620.7700,W,370,150,150320,0,E*73
$GPGGA,150201,3549.5504,N,11620.7700,W,1,,,6460,M,,,,0*3B
$GPRMC,150212,A,3548.6545,N,11620.1415,W,369,150,150320,0,E*7F
$GPGGA,150212,3548.6545,N,11620.1415,W,1,,,6461,M,,,,0*3E
$GPRMC,150222,A,3547.7585,N,11619.5155,W,373,150,150320,0,E*7A
$GPGGA,150222,3547.7585,N,11619.5155,W,1,,,6468,M,,,,0*39
$GPRMC,150232,A,3546.8470,N,11618.8825,W,376,151,150320,0,E*78
$GPGGA,150232,3546.8470,N,11618.8825,W,1,,,6473,M,,,,0*35
$GPRMC,150242,A,3545.9317,N,11618.2461,W,381,150,150320,0,E*74
$GPGGA,150242,3545.9317,N,11618.2461,W,1,,,6475,M,,,,0*36
$GPRMC,150252,A,3545.0005,N,11617.6010,W,384,151,150320,0,E*71
$GPGGA,150252,3545.0005,N,11617.6010,W,1,,,6476,M,,,,0*34
$GPRMC,150302,A,3544.0627,N,11616.9651,W,387,151,150320,0,E*7C
$GPGGA,150302,3544.0627,N,11616.9651,W,1,,,6473,M,,,,0*3F
$GPRMC,150312,A,3543.1098,N,11616.3245,W,390,151,150320,0,E*74
$GPGGA,150312,3543.1098,N,11616.3245,W,1,,,6470,M,,,,0*32
$GPRMC,150322,A,3542.1524,N,11615.6731,W,393,151,150320,0,E*77
$GPGGA,150322,3542.1524,N,11615.6731,W,1,,,6466,M,,,,0*35
$GPRMC,150332,A,3541.1909,N,11615.0169,W,394,151,150320,0,E*7C
$GPGGA,150332,3541.1909,N,11615.0169,W,1,,,6465,M,,,,0*3A
$GPRMC,150342,A,3540.2302,N,11614.3681,W,395,151,150320,0,E*7A
$GPGGA,150342,3540.2302,N,11614.3681,W,1,,,6470,M,,,,0*39
$GPRMC,150352,A,3539.2667,N,11613.7173,W,397,151,150320,0,E*78
$GPGGA,150352,3539.2667,N,11613.7173,W,1,,,6478,M,,,,0*31
$GPRMC,150402,A,3538.2957,N,11613.0518,W,399,151,150320,0,E*77
$GPGGA,150402,3538.2957,N,11613.0518,W,1,,,6485,M,,,,0*32
$GPRMC,150412,A,3537.3213,N,11612.3852,W,397,151,150320,0,E*7C
$GPGGA,150412,3537.3213,N,11612.3852,W,1,,,6477,M,,,,0*3A
$GPRMC,150422,A,3536.3757,N,11611.7311,W,383,151,150320,0,E*75
$GPGGA,150422,3536.3757,N,11611.7311,W,1,,,6466,M,,,,0*36
$GPRMC,150432,A,3535.4173,N,11611.3169,W,352,172,150320,0,E*74
$GPGGA,150432,3535.4173,N,11611.3169,W,1,,,6462,M,,,,0*3E
$GPRMC,150442,A,3534.4834,N,11611.3856,W,323,196,150320,0,E*71
$GPGGA,150442,3534.4834,N,11611.3856,W,1,,,6472,M,,,,0*36
$GPRMC,150452,A,3533.7124,N,11611.8642,W,301,219,150320,0,E*78
$GPGGA,150452,3533.7124,N,11611.8642,W,1,,,6474,M,,,,0*3D
$GPRMC,150502,A,3533.2039,N,11612.6327,W,287,243,150320,0,E*7F
$GPGGA,150502,3533.2039,N,11612.6327,W,1,,,6475,M,,,,0*3B
$GPRMC,150512,A,3533.0186,N,11613.5662,W,281,269,150320,0,E*71
$GPGGA,150512,3533.0186,N,11613.5662,W,1,,,6470,M,,,,0*3E
$GPRMC,150522,A,3533.1869,N,11614.4934,W,283,296,150320,0,E*73
$GPGGA,150522,3533.1869,N,11614.4934,W,1,,,6467,M,,,,0*38
$GPRMC,150532,A,3533.6850,N,11615.2428,W,291,322,150320,0,E*75
$GPGGA,150532,3533.6850,N,11615.2428,W,1,,,6467,M,,,,0*33
$GPRMC,150542,A,3534.4175,N,11615.7188,W,303,337,150320,0,E*7D
$GPGGA,150542,3534.4175,N,11615.7188,W,1,,,6465,M,,,,0*37
$GPRMC,150552,A,3535.2093,N,11616.1283,W,311,337,150320,0,E*7C
$GPGGA,150552,3535.2093,N,11616.1283,W,1,,,6456,M,,,,0*35
$GPRMC,150602,A,3536.0119,N,11616.5449,W,316,337,150320,0,E*7B
$GPGGA,150602,3536.0119,N,11616.5449,W,1,,,6456,M,,,,0*35
$GPRMC,150612,A,3536.8239,N,11616.9745,W,321,336,150320,0,E*75
$GPGGA,150612,3536.8239,N,11616.9745,W,1,,,6462,M,,,,0*39
$GPRMC,150622,A,3537.6512,N,11617.4216,W,326,336,150320,0,E*7F
$GPGGA,150622,3537.6512,N,11617.4216,W,1,,,6466,M,,,,0*30
$GPRMC,150632,A,3538.4838,N,11617.8830,W,332,335,150320,0,E*72
$GPGGA,150632,3538.4838,N,11617.8830,W,1,,,6468,M,,,,0*35
$GPRMC,150642,A,3539.3266,N,11618.3620,W,337,335,150320,0,E*7C
$GPGGA,150642,3539.3266,N,11618.3620,W,1,,,6468,M,,,,0*3E
$GPRMC,150652,A,3540.1790,N,11618.8603,W,342,334,150320,0,E*74
$GPGGA,150652,3540.1790,N,11618.8603,W,1,,,6465,M,,,,0*38
$GPRMC,150702,A,3541.0357,N,11619.3828,W,342,333,150320,0,E*75
$GPGGA,150702,3541.0357,N,11619.3828,W,1,,,6462,M,,,,0*39
$GPRMC,150712,A,3541.8809,N,11619.9196,W,343,333,150320,0,E*7B
$GPGGA,150712,3541.8809,N,11619.9196,W,1,,,6461,M,,,,0*35
$GPRMC,150722,A,3542.7307,N,11620.4565,W,341,333,150320,0,E*7C
$GPGGA,150722,3542.7307,N,11620.4565,W,1,,,6459,M,,,,0*3B
$GPRMC,150733,A,3543.5802,N,11620.9829,W,339,333,150320,0,E*76
$GPGGA,150733,3543.5802,N,11620.9829,W,1,,,6457,M,,,,0*30
$GPRMC,150743,A,3544.4255,N,11621.5038,W,337,333,150320,0,E*74
$GPGGA,150743,3544.4255,N,11621.5038,W,1,,,6459,M,,,,0*32
$GPRMC,150753,A,3545.2691,N,11622.0148,W,336,334,150320,0,E*78
$GPGGA,150753,3545.2691,N,11622.0148,W,1,,,6461,M,,,,0*33
$GPRMC,150803,A,3546.1114,N,11622.5160,W,334,334,150320,0,E*75
$GPGGA,150803,3546.1114,N,11622.5160,W,1,,,6461,M,,,,0*3C
$GPRMC,150813,A,3546.9506,N,11623.0122,W,332,334,150320,0,E*7F
$GPGGA,150813,3546.9506,N,11623.0122,W,1,,,6461,M,,,,0*30
$GPRMC,150823,A,3547.7859,N,11623.5048,W,331,336,150320,0,E*7D
$GPGGA,150823,3547.7859,N,11623.5048,W,1,,,6462,M,,,,0*30
$GPRMC,150833,A,3548.6876,N,11623.8263,W,346,354,150320,0,E*7D
$GPGGA,150833,3548.6876,N,11623.8263,W,1,,,6465,M,,,,0*33
$GPRMC,150843,A,3549.6633,N,11623.7166,W,363,16,150320,0,E*4F
$GPGGA,150843,3549.6633,N,11623.7166,W,1,,,6476,M,,,,0*31
$GPRMC,150853,A,3550.5793,N,11623.1446,W,375,37,150320,0,E*4B
$GPGGA,150853,3550.5793,N,11623.1446,W,1,,,6475,M,,,,0*32
$GPRMC,150903,A,3551.2917,N,11622.2004,W,382,57,150320,0,E*45
$GPGGA,150903,3551.2917,N,11622.2004,W,1,,,6467,M,,,,0*31
$GPRMC,150913,A,3551.7034,N,11620.9975,W,381,77,150320,0,E*4E
$GPGGA,150913,3551.7034,N,11620.9975,W,1,,,6461,M,,,,0*3D
$GPRMC,150923,A,3551.7608,N,11619.7173,W,373,97,150320,0,E*4D
$GPGGA,150923,3551.7608,N,11619.7173,W,1,,,6462,M,,,,0*3E
$GPRMC,150933,A,3551.4735,N,11618.5252,W,357,117,150320,0,E*7C
$GPGGA,150933,3551.4735,N,11618.5252,W,1,,,6467,M,,,,0*35
$GPRMC,150943,A,3550.8920,N,11617.5811,W,336,138,150320,0,E*74
$GPGGA,150943,3550.8920,N,11617.5811,W,1,,,6470,M,,,,0*31
$GPRMC,150953,A,3550.1204,N,11617.0087,W,314,160,150320,0,E*7E
$GPGGA,150953,3550.1204,N,11617.0087,W,1,,,6472,M,,,,0*34
$GPRMC,151003,A,3549.2840,N,11616.8346,W,299,176,150320,0,E*76
$GPGGA,151003,3549.2840,N,11616.8346,W,1,,,6473,M,,,,0*3E
$GPRMC,151013,A,3548.4568,N,11616.7835,W,298,176,150320,0,E*76
$GPGGA,151013,3548.4568,N,11616.7835,W,1,,,6456,M,,,,0*38
$GPRMC,151022,A,3547.7719,N,11616.6611,W,302,167,150320,0,E*77
$GPGGA,151022,3547.7719,N,11616.6611,W,1,,,6453,M,,,,0*3E
$GPRMC,151023,A,3547.6293,N,11616.6159,W,303,164,150320,0,E*79
$GPGGA,151023,3547.6293,N,11616.6159,W,1,,,6454,M,,,,0*35
$GPRMC,151032,A,3546.9068,N,11616.2755,W,306,156,150320,0,E*7B
$GPGGA,151032,3546.9068,N,11616.2755,W,1,,,6462,M,,,,0*36
$GPRMC,151033,A,3546.8343,N,11616.2348,W,306,155,150320,0,E*7A
$GPGGA,151033,3546.8343,N,11616.2348,W,1,,,6462,M,,,,0*34
$GPRMC,151043,A,3546.0595,N,11615.7951,W,305,155,150320,0,E*7F
$GPGGA,151043,3546.0595,N,11615.7951,W,1,,,6460,M,,,,0*30
$GPRMC,151053,A,3545.2890,N,11615.3536,W,304,155,150320,0,E*7F
$GPGGA,151053,3545.2890,N,11615.3536,W,1,,,6459,M,,,,0*3B
$GPRMC,151103,A,3544.5252,N,11614.9181,W,303,155,150320,0,E*7D
$GPGGA,151103,3544.5252,N,11614.9181,W,1,,,6459,M,,,,0*3E
$GPRMC,151113,A,3543.7603,N,11614.4954,W,301,156,150320,0,E*75
$GPGGA,151113,3543.7603,N,11614.4954,W,1,,,6457,M,,,,0*39
$GPRMC,151123,A,3542.9946,N,11614.0911,W,299,157,150320,0,E*73
$GPGGA,151123,3542.9946,N,11614.0911,W,1,,,6459,M,,,,0*30
$GPRMC,151133,A,3542.2318,N,11613.6950,W,298,157,150320,0,E*7D
$GPGGA,151133,3542.2318,N,11613.6950,W,1,,,6464,M,,,,0*31
$GPRMC,151144,A,3541.4663,N,11613.2889,W,299,157,150320,0,E*71
$GPGGA,151144,3541.4663,N,11613.2889,W,1,,,6465,M,,,,0*3D
$GPRMC,151154,A,3540.7026,N,11612.8855,W,300,157,150320,0,E*7E
$GPGGA,151154,3540.7026,N,11612.8855,W,1,,,6466,M,,,,0*30
$GPRMC,151204,A,3539.9326,N,11612.4707,W,302,156,150320,0,E*7C
$GPGGA,151204,3539.9326,N,11612.4707,W,1,,,6463,M,,,,0*34
$GPRMC,151214,A,3539.1657,N,11612.0522,W,302,156,150320,0,E*77
$GPGGA,151214,3539.1657,N,11612.0522,W,1,,,6464,M,,,,0*38
$GPRMC,151224,A,3538.3819,N,11611.7538,W,289,173,150320,0,E*79
$GPGGA,151224,3538.3819,N,11611.7538,W,1,,,6475,M,,,,0*33
$GPRMC,151234,A,3537.5972,N,11611.8391,W,279,198,150320,0,E*7D
$GPGGA,151234,3537.5972,N,11611.8391,W,1,,,6484,M,,,,0*33
$GPRMC,151244,A,3536.9484,N,11612.3351,W,275,226,150320,0,E*7D
$GPGGA,151244,3536.9484,N,11612.3351,W,1,,,6481,M,,,,0*3C
$GPRMC,151254,A,3536.5836,N,11613.1525,W,281,256,150320,0,E*7F
$GPGGA,151254,3536.5836,N,11613.1525,W,1,,,6476,M,,,,0*3A
$GPRMC,151304,A,3536.6078,N,11614.1225,W,294,287,150320,0,E*72
$GPGGA,151304,3536.6078,N,11614.1225,W,1,,,6468,M,,,,0*30
$GPRMC,151314,A,3537.0343,N,11615.0038,W,311,314,150320,0,E*76
$GPGGA,151314,3537.0343,N,11615.0038,W,1,,,6470,M,,,,0*3A
$GPRMC,151324,A,3537.7790,N,11615.5983,W,330,339,150320,0,E*78
$GPGGA,151324,3537.7790,N,11615.5983,W,1,,,6474,M,,,,0*3C
$GPRMC,151334,A,3538.7088,N,11615.7765,W,348,3,150320,0,E*79
$GPGGA,151334,3538.7088,N,11615.7765,W,1,,,6472,M,,,,0*3E
$GPRMC,151344,A,3539.6647,N,11615.4827,W,361,25,150320,0,E*4E
$GPGGA,151344,3539.6647,N,11615.4827,W,1,,,6467,M,,,,0*32
$GPRMC,151354,A,3540.4802,N,11614.7602,W,366,47,150320,0,E*44
$GPGGA,151354,3540.4802,N,11614.7602,W,1,,,6465,M,,,,0*39
$GPRMC,151404,A,3541.0268,N,11613.7179,W,364,68,150320,0,E*46
$GPGGA,151404,3541.0268,N,11613.7179,W,1,,,6465,M,,,,0*34
$GPRMC,151414,A,3541.2188,N,11612.5214,W,355,90,150320,0,E*46
$GPGGA,151414,3541.2188,N,11612.5214,W,1,,,6470,M,,,,0*35
$GPRMC,151424,A,3541.0375,N,11611.3647,W,340,112,150320,0,E*7F
$GPGGA,151424,3541.0375,N,11611.3647,W,1,,,6472,M,,,,0*31
$GPRMC,151434,A,3540.5254,N,11610.4300,W,321,136,150320,0,E*79
$GPGGA,151434,3540.5254,N,11610.4300,W,1,,,6468,M,,,,0*3D
$GPRMC,151444,A,3539.7947,N,11609.8856,W,300,162,150320,0,E*75
$GPGGA,151444,3539.7947,N,11609.8856,W,1,,,6471,M,,,,0*3B
$GPRMC,151454,A,3538.9927,N,11609.8177,W,280,192,150320,0,E*71
$GPGGA,151454,3538.9927,N,11609.8177,W,1,,,6477,M,,,,0*3F
$GPRMC,151504,A,3538.2724,N,11610.1502,W,275,204,150320,0,E*72
$GPGGA,151504,3538.2724,N,11610.1502,W,1,,,6472,M,,,,0*3F
$GPRMC,151514,A,3537.5715,N,11610.5517,W,277,206,150320,0,E*79
$GPGGA,151514,3537.5715,N,11610.5517,W,1,,,6454,M,,,,0*30
$GPRMC,151524,A,3536.8741,N,11610.9687,W,278,206,150320,0,E*7E
$GPGGA,151524,3536.8741,N,11610.9687,W,1,,,6455,M,,,,0*39
$GPRMC,151534,A,3536.1773,N,11611.3786,W,280,205,150320,0,E*78
$GPGGA,151534,3536.1773,N,11611.3786,W,1,,,6461,M,,,,0*3C
$GPRMC,151544,A,3535.4684,N,11611.7864,W,284,205,150320,0,E*73
$GPGGA,151544,3535.4684,N,11611.7864,W,1,,,6464,M,,,,0*36
$GPRMC,151554,A,3534.7416,N,11612.1996,W,289,205,150320,0,E*7D
$GPGGA,151554,3534.7416,N,11612.1996,W,1,,,6462,M,,,,0*33
$GPRMC,151604,A,3534.0078,N,11612.6203,W,294,205,150320,0,E*7C
$GPGGA,151604,3534.0078,N,11612.6203,W,1,,,6465,M,,,,0*39
$GPRMC,151614,A,3533.2669,N,11613.0628,W,299,207,150320,0,E*7B
$GPGGA,151614,3533.2669,N,11613.0628,W,1,,,6468,M,,,,0*3C
$GPRMC,151624,A,3532.5142,N,11613.5304,W,305,207,150320,0,E*7A
$GPGGA,151624,3532.5142,N,11613.5304,W,1,,,6471,M,,,,0*31
$GPRMC,151635,A,3531.7438,N,11613.9987,W,311,206,150320,0,E*7A
$GPGGA,151635,3531.7438,N,11613.9987,W,1,,,6473,M,,,,0*37
$GPRMC,151645,A,3530.9559,N,11614.4685,W,316,206,150320,0,E*74
$GPGGA,151645,3530.9559,N,11614.4685,W,1,,,6473,M,,,,0*3E
$GPRMC,151655,A,3530.1558,N,11614.9406,W,319,205,150320,0,E*74
$GPGGA,151655,3530.1558,N,11614.9406,W,1,,,6473,M,,,,0*32
$GPRMC,151705,A,3529.3435,N,11615.3988,W,321,204,150320,0,E*7A
$GPGGA,151705,3529.3435,N,11615.3988,W,1,,,6476,M,,,,0*33
$GPRMC,151715,A,3528.5447,N,11615.8876,W,317,213,150320,0,E*71
$GPGGA,151715,3528.5447,N,11615.8876,W,1,,,6481,M,,,,0*33
$GPRMC,151725,A,3527.9194,N,11616.6276,W,313,230,150320,0,E*78
$GPGGA,151725,3527.9194,N,11616.6276,W,1,,,6488,M,,,,0*36
$GPRMC,151735,A,3527.4598,N,11617.5308,W,314,248,150320,0,E*7E
$GPGGA,151735,3527.4598,N,11617.5308,W,1,,,6477,M,,,,0*38
$GPRMC,151745,A,3527.2376,N,11618.5691,W,315,258,150320,0,E*73
$GPGGA,151745,3527.2376,N,11618.5691,W,1,,,6485,M,,,,0*38
$GPRMC,151755,A,3527.0516,N,11619.6256,W,317,257,150320,0,E*70
$GPGGA,151755,3527.0516,N,11619.6256,W,1,,,6470,M,,,,0*3C
$GPRMC,151805,A,3526.8483,N,11620.6837,W,319,256,150320,0,E*76
$GPGGA,151805,3526.8483,N,11620.6837,W,1,,,6467,M,,,,0*33
$GPRMC,151815,A,3526.6250,N,11621.7383,W,319,255,150320,0,E*76
$GPGGA,151815,3526.6250,N,11621.7383,W,1,,,6468,M,,,,0*3F
$GPRMC,151825,A,3526.3919,N,11622.7825,W,317,251,150320,0,E*78
$GPGGA,151825,3526.3919,N,11622.7825,W,1,,,6475,M,,,,0*37
$GPRMC,151835,A,3525.9887,N,11623.7457,W,316,235,150320,0,E*7D
$GPGGA,151835,3525.9887,N,11623.7457,W,1,,,6465,M,,,,0*30
$GPRMC,151845,A,3525.4593,N,11624.5833,W,308,231,150320,0,E*7F
$GPGGA,151845,3525.4593,N,11624.5833,W,1,,,6464,M,,,,0*38
$GPRMC,151855,A,3524.9260,N,11625.3934,W,301,231,150320,0,E*71
$GPGGA,151855,3524.9260,N,11625.3934,W,1,,,6459,M,,,,0*31
$GPRMC,151905,A,3524.4060,N,11626.1842,W,293,231,150320,0,E*71
$GPGGA,151905,3524.4060,N,11626.1842,W,1,,,6461,M,,,,0*30
$GPRMC,151915,A,3523.9012,N,11626.9594,W,287,232,150320,0,E*77
$GPGGA,151915,3523.9012,N,11626.9594,W,1,,,6462,M,,,,0*33
$GPRMC,151925,A,3523.4088,N,11627.7176,W,280,232,150320,0,E*7A
$GPGGA,151925,3523.4088,N,11627.7176,W,1,,,6464,M,,,,0*3F
$GPRMC,151935,A,3522.9312,N,11628.4627,W,274,232,150320,0,E*73
$GPGGA,151935,3522.9312,N,11628.4627,W,1,,,6465,M,,,,0*3C
$GPRMC,151946,A,3522.4699,N,11629.1974,W,268,233,150320,0,E*7D
$GPGGA,151946,3522.4699,N,11629.1974,W,1,,,6466,M,,,,0*3D
$GPRMC,151956,A,3522.0199,N,11629.9184,W,264,233,150320,0,E*7C
$GPGGA,151956,3522.0199,N,11629.9184,W,1,,,6468,M,,,,0*3E
$GPRMC,152006,A,3521.5812,N,11630.6400,W,267,234,150320,0,E*75
$GPGGA,152006,3521.5812,N,11630.6400,W,1,,,6469,M,,,,0*32
$GPRMC,152016,A,3521.1519,N,11631.3928,W,271,235,150320,0,E*73
$GPGGA,152016,3521.1519,N,11631.3928,W,1,,,6472,M,,,,0*38
$GPRMC,152026,A,3520.7159,N,11632.1582,W,275,235,150320,0,E*7E
$GPGGA,152026,3520.7159,N,11632.1582,W,1,,,6470,M,,,,0*33
$GPRMC,152036,A,3520.2741,N,11632.9281,W,278,235,150320,0,E*74
$GPGGA,152036,3520.2741,N,11632.9281,W,1,,,6467,M,,,,0*32
$GPRMC,152046,A,3519.8211,N,11633.7064,W,281,234,150320,0,E*72
$GPGGA,152046,3519.8211,N,11633.7064,W,1,,,6465,M,,,,0*31
$GPRMC,152056,A,3519.3574,N,11634.4852,W,283,234,150320,0,E*77
$GPGGA,152056,3519.3574,N,11634.4852,W,1,,,6463,M,,,,0*30
$GPRMC,152106,A,3518.8858,N,11635.2587,W,285,233,150320,0,E*79
$GPGGA,152106,3518.8858,N,11635.2587,W,1,,,6462,M,,,,0*3E
$GPRMC,152116,A,3518.4078,N,11636.0423,W,287,233,150320,0,E*72
$GPGGA,152116,3518.4078,N,11636.0423,W,1,,,6462,M,,,,0*37
$GPRMC,152126,A,3517.9314,N,11636.8283,W,289,234,150320,0,E*77
$GPGGA,152126,3517.9314,N,11636.8283,W,1,,,6461,M,,,,0*38
$GPRMC,152136,A,3517.4532,N,11637.6246,W,289,234,150320,0,E*7F
$GPGGA,152136,3517.4532,N,11637.6246,W,1,,,6462,M,,,,0*33
$GPRMC,152146,A,3516.9768,N,11638.4221,W,289,234,150320,0,E*75
$GPGGA,152146,3516.9768,N,11638.4221,W,1,,,6464,M,,,,0*3F
$GPRMC,152156,A,3516.5048,N,11639.2137,W,288,234,150320,0,E*7F
$GPGGA,152156,3516.5048,N,11639.2137,W,1,,,6465,M,,,,0*35
$GPRMC,152206,A,3516.0311,N,11640.0044,W,286,234,150320,0,E*74
$GPGGA,152206,3516.0311,N,11640.0044,W,1,,,6465,M,,,,0*30
$GPRMC,152216,A,3515.5632,N,11640.7930,W,284,234,150320,0,E*78
$GPGGA,152216,3515.5632,N,11640.7930,W,1,,,6465,M,,,,0*3E
$GPRMC,152226,A,3515.1040,N,11641.5738,W,283,234,150320,0,E*7E
$GPGGA,152226,3515.1040,N,11641.5738,W,1,,,6466,M,,,,0*3C
$GPRMC,152236,A,3514.6503,N,11642.3515,W,280,235,150320,0,E*71
$GPGGA,152236,3514.6503,N,11642.3515,W,1,,,6467,M,,,,0*30
$GPRMC,152246,A,3514.3227,N,11643.2039,W,277,257,150320,0,E*75
$GPGGA,152246,3514.3227,N,11643.2039,W,1,,,6472,M,,,,0*3C
$GPRMC,152256,A,3514.3572,N,11644.1470,W,285,287,150320,0,E*7E
$GPGGA,152256,3514.3572,N,11644.1470,W,1,,,6476,M,,,,0*33
$GPRMC,152306,A,3514.7852,N,11644.9855,W,302,315,150320,0,E*76
$GPGGA,152306,3514.7852,N,11644.9855,W,1,,,6474,M,,,,0*3D
$GPRMC,152316,A,3515.5170,N,11645.5328,W,322,341,150320,0,E*72
$GPGGA,152316,3515.5170,N,11645.5328,W,1,,,6466,M,,,,0*39
$GPRMC,152326,A,3516.4304,N,11645.6586,W,340,5,150320,0,E*74
$GPGGA,152326,3516.4304,N,11645.6586,W,1,,,6462,M,,,,0*3C
$GPRMC,152336,A,3517.3485,N,11645.3232,W,353,27,150320,0,E*42
$GPGGA,152336,3517.3485,N,11645.3232,W,1,,,6462,M,,,,0*38
$GPRMC,152346,A,3518.1479,N,11644.6038,W,359,45,150320,0,E*49
$GPGGA,152346,3518.1479,N,11644.6038,W,1,,,6461,M,,,,0*3E
$GPRMC,152356,A,3518.7609,N,11643.6410,W,361,60,150320,0,E*4E
$GPGGA,152356,3518.7609,N,11643.6410,W,1,,,6462,M,,,,0*36
$GPRMC,152407,A,3519.1555,N,11642.5137,W,359,74,150320,0,E*4C
$GPGGA,152407,3519.1555,N,11642.5137,W,1,,,6467,M,,,,0*3F
$GPRMC,152417,A,3519.3364,N,11641.3181,W,355,84,150320,0,E*40
$GPGGA,152417,3519.3364,N,11641.3181,W,1,,,6470,M,,,,0*36
$GPRMC,152427,A,3519.4371,N,11640.1114,W,356,84,150320,0,E*4C
$GPGGA,152427,3519.4371,N,11640.1114,W,1,,,6462,M,,,,0*3A
$GPRMC,152437,A,3519.4800,N,11638.9134,W,352,91,150320,0,E*45
$GPGGA,152437,3519.4800,N,11638.9134,W,1,,,6463,M,,,,0*32
$GPRMC,152447,A,3519.4583,N,11637.7131,W,351,93,150320,0,E*41
$GPGGA,152447,3519.4583,N,11637.7131,W,1,,,6466,M,,,,0*32
$GPRMC,152457,A,3519.2970,N,11636.5580,W,341,108,150320,0,E*79
$GPGGA,152457,3519.2970,N,11636.5580,W,1,,,6468,M,,,,0*36
$GPRMC,152507,A,3518.8488,N,11635.5739,W,323,129,150320,0,E*78
$GPGGA,152507,3518.8488,N,11635.5739,W,1,,,6478,M,,,,0*31
$GPRMC,152517,A,3518.1737,N,11634.9018,W,304,153,150320,0,E*76
$GPGGA,152517,3518.1737,N,11634.9018,W,1,,,6476,M,,,,0*39
$GPRMC,152527,A,3517.3803,N,11634.6554,W,286,179,150320,0,E*71
$GPGGA,152527,3517.3803,N,11634.6554,W,1,,,6470,M,,,,0*3B
$GPRMC,152537,A,3516.6314,N,11634.8569,W,272,206,150320,0,E*79
$GPGGA,152537,3516.6314,N,11634.8569,W,1,,,6469,M,,,,0*3B
$GPRMC,152547,A,3516.0719,N,11635.4418,W,265,235,150320,0,E*7D
$GPGGA,152547,3516.0719,N,11635.4418,W,1,,,6468,M,,,,0*38
$GPRMC,152557,A,3515.7992,N,11636.2769,W,268,261,150320,0,E*79
$GPGGA,152557,3515.7992,N,11636.2769,W,1,,,6468,M,,,,0*30
$GPRMC,152607,A,3515.8353,N,11637.1969,W,274,279,150320,0,E*7F
$GPGGA,152607,3515.8353,N,11637.1969,W,1,,,6471,M,,,,0*3A
$GPRMC,152617,A,3515.9633,N,11638.1147,W,276,280,150320,0,E*73
$GPGGA,152617,3515.9633,N,11638.1147,W,1,,,6460,M,,,,0*32
$GPRMC,152627,A,3516.0319,N,11639.0428,W,271,269,150320,0,E*7B
$GPGGA,152627,3516.0319,N,11639.0428,W,1,,,6459,M,,,,0*30
$GPRMC,152637,A,3515.9839,N,11639.9605,W,269,266,150320,0,E*7B
$GPGGA,152637,3515.9839,N,11639.9605,W,1,,,6466,M,,,,0*3A
$GPRMC,152647,A,3515.9270,N,11640.8783,W,270,266,150320,0,E*73
$GPGGA,152647,3515.9270,N,11640.8783,W,1,,,6463,M,,,,0*3F
$GPRMC,152657,A,3515.8714,N,11641.7995,W,271,266,150320,0,E*72
$GPGGA,152657,3515.8714,N,11641.7995,W,1,,,6462,M,,,,0*3E
$GPRMC,152707,A,3515.8171,N,11642.7175,W,272,266,150320,0,E*75
$GPGGA,152707,3515.8171,N,11642.7175,W,1,,,6464,M,,,,0*3C
$GPRMC,152717,A,3515.7750,N,11643.6436,W,272,268,150320,0,E*72
$GPGGA,152717,3515.7750,N,11643.6436,W,1,,,6468,M,,,,0*39
$GPRMC,152727,A,3515.7676,N,11644.5717,W,274,277,150320,0,E*78
$GPGGA,152727,3515.7676,N,11644.5717,W,1,,,6469,M,,,,0*3A
$GPRMC,152737,A,3516.0998,N,11645.4224,W,293,313,150320,0,E*7D
$GPGGA,152737,3516.0998,N,11645.4224,W,1,,,6481,M,,,,0*33
$GPRMC,152747,A,3516.8391,N,11645.9029,W,321,350,150320,0,E*7C
$GPGGA,152747,3516.8391,N,11645.9029,W,1,,,6493,M,,,,0*3E
$GPRMC,152757,A,3517.7500,N,11645.7262,W,348,27,150320,0,E*42
$GPGGA,152757,3517.7500,N,11645.7262,W,1,,,6491,M,,,,0*3E
$GPRMC,152808,A,3518.4709,N,11644.9173,W,359,59,150320,0,E*45
$GPGGA,152808,3518.4709,N,11644.9173,W,1,,,6482,M,,,,0*32
$GPRMC,152818,A,3518.7344,N,11643.7621,W,354,90,150320,0,E*4B
$GPGGA,152818,3518.7344,N,11643.7621,W,1,,,6478,M,,,,0*31
$GPRMC,152828,A,3518.4567,N,11642.6558,W,332,124,150320,0,E*7F
$GPGGA,152828,3518.4567,N,11642.6558,W,1,,,6478,M,,,,0*3B
$GPRMC,152838,A,3517.8053,N,11641.9152,W,315,144,150320,0,E*7E
$GPGGA,152838,3517.8053,N,11641.9152,W,1,,,6476,M,,,,0*37
$GPRMC,152848,A,3517.0834,N,11641.3034,W,318,146,150320,0,E*7C
$GPGGA,152848,3517.0834,N,11641.3034,W,1,,,6453,M,,,,0*3D
$GPRMC,152858,A,3516.3450,N,11640.6908,W,321,146,150320,0,E*79
$GPGGA,152858,3516.3450,N,11640.6908,W,1,,,6448,M,,,,0*38
$GPRMC,152908,A,3515.6037,N,11640.0697,W,323,145,150320,0,E*70
$GPGGA,152908,3515.6037,N,11640.0697,W,1,,,6453,M,,,,0*3A
$GPRMC,152918,A,3514.8662,N,11639.4477,W,322,145,150320,0,E*7F
$GPGGA,152918,3514.8662,N,11639.4477,W,1,,,6458,M,,,,0*3F
$GPRMC,152928,A,3514.1198,N,11638.8506,W,313,152,150320,0,E*79
$GPGGA,152928,3514.1198,N,11638.8506,W,1,,,6468,M,,,,0*3E
$GPRMC,152938,A,3513.3141,N,11638.5464,W,293,175,150320,0,E*7D
$GPGGA,152938,3513.3141,N,11638.5464,W,1,,,6475,M,,,,0*3A
$GPRMC,152948,A,3512.5367,N,11638.6615,W,276,200,150320,0,E*76
$GPGGA,152948,3512.5367,N,11638.6615,W,1,,,6482,M,,,,0*33
$GPRMC,152958,A,3511.9155,N,11639.1585,W,265,227,150320,0,E*70
$GPGGA,152958,3511.9155,N,11639.1585,W,1,,,6481,M,,,,0*31
$GPRMC,153008,A,3511.5708,N,11639.9422,W,264,257,150320,0,E*7D
$GPGGA,153008,3511.5708,N,11639.9422,W,1,,,6476,M,,,,0*32
$GPRMC,153018,A,3511.6073,N,11640.8416,W,273,288,150320,0,E*78
$GPGGA,153018,3511.6073,N,11640.8416,W,1,,,6474,M,,,,0*31
$GPRMC,153028,A,3512.0440,N,11641.6239,W,291,320,150320,0,E*71
$GPGGA,153028,3512.0440,N,11641.6239,W,1,,,6475,M,,,,0*36
$GPRMC,153038,A,3512.7973,N,11642.0444,W,313,350,150320,0,E*7F
$GPGGA,153038,3512.7973,N,11642.0444,W,1,,,6473,M,,,,0*32
$GPRMC,153048,A,3513.6832,N,11642.0913,W,322,360,150320,0,E*72
$GPGGA,153048,3513.6832,N,11642.0913,W,1,,,6464,M,,,,0*38
$GPRMC,153058,A,3514.5962,N,11642.0869,W,330,0,150320,0,E*79
$GPGGA,153058,3514.5962,N,11642.0869,W,1,,,6457,M,,,,0*35
$GPRMC,153108,A,3515.5272,N,11642.0853,W,336,360,150320,0,E*7C
$GPGGA,153108,3515.5272,N,11642.0853,W,1,,,6459,M,,,,0*3D
$GPRMC,153118,A,3516.4723,N,11642.0899,W,340,360,150320,0,E*79
$GPGGA,153118,3516.4723,N,11642.0899,W,1,,,6462,M,,,,0*31
$GPRMC,153128,A,3517.4297,N,11642.0989,W,344,359,150320,0,E*7F
$GPGGA,153128,3517.4297,N,11642.0989,W,1,,,6463,M,,,,0*38
$GPRMC,153138,A,3518.3927,N,11642.0375,W,355,13,150320,0,E*42
$GPGGA,153138,3518.3927,N,11642.0375,W,1,,,6465,M,,,,0*3E
$GPRMC,153148,A,3519.2952,N,11641.5002,W,368,39,150320,0,E*44
$GPGGA,153148,3519.2952,N,11641.5002,W,1,,,6482,M,,,,0*37
$GPRMC,153159,A,3519.9035,N,11640.4975,W,370,68,150320,0,E*43
$GPGGA,153159,3519.9035,N,11640.4975,W,1,,,6493,M,,,,0*3D
$GPRMC,153209,A,3520.0496,N,11639.2684,W,363,95,150320,0,E*42
$GPGGA,153209,3520.0496,N,11639.2684,W,1,,,6490,M,,,,0*3F
$GPRMC,153219,A,3519.7436,N,11638.1211,W,349,122,150320,0,E*7B
$GPGGA,153219,3519.7436,N,11638.1211,W,1,,,6481,M,,,,0*33
$GPRMC,153229,A,3519.0731,N,11637.3184,W,329,150,150320,0,E*7A
$GPGGA,153229,3519.0731,N,11637.3184,W,1,,,6476,M,,,,0*39
$GPRMC,153239,A,3518.2282,N,11637.0117,W,314,171,150320,0,E*71
$GPGGA,153239,3518.2282,N,11637.0117,W,1,,,6479,M,,,,0*30
$GPRMC,153249,A,3517.3546,N,11636.8701,W,316,173,150320,0,E*7F
$GPGGA,153249,3517.3546,N,11636.8701,W,1,,,6457,M,,,,0*32
$GPRMC,153259,A,3516.4820,N,11636.7349,W,317,173,150320,0,E*73
$GPGGA,153259,3516.4820,N,11636.7349,W,1,,,6453,M,,,,0*3B
$GPRMC,153309,A,3515.6046,N,11636.5916,W,316,172,150320,0,E*7C
$GPGGA,153309,3515.6046,N,11636.5916,W,1,,,6459,M,,,,0*3E
$GPRMC,153319,A,3514.7290,N,11636.4409,W,316,172,150320,0,E*76
$GPGGA,153319,3514.7290,N,11636.4409,W,1,,,6466,M,,,,0*38
$GPRMC,153329,A,3513.8551,N,11636.2830,W,315,172,150320,0,E*74
$GPGGA,153329,3513.8551,N,11636.2830,W,1,,,6468,M,,,,0*37
$GPRMC,153339,A,3512.9894,N,11636.2149,W,304,185,150320,0,E*7E
$GPGGA,153339,3512.9894,N,11636.2149,W,1,,,6476,M,,,,0*3A
$GPRMC,153349,A,3512.2059,N,11636.5120,W,288,209,150320,0,E*71
$GPGGA,153349,3512.2059,N,11636.5120,W,1,,,6489,M,,,,0*37
$GPRMC,153359,A,3511.6224,N,11637.1565,W,281,236,150320,0,E*7A
$GPGGA,153359,3511.6224,N,11637.1565,W,1,,,6489,M,,,,0*39
$GPRMC,153409,A,3511.3391,N,11638.0338,W,282,261,150320,0,E*73
$GPGGA,153409,3511.3391,N,11638.0338,W,1,,,6480,M,,,,0*38
$GPRMC,153419,A,3511.3857,N,11638.9951,W,287,284,150320,0,E*71
$GPGGA,153419,3511.3857,N,11638.9951,W,1,,,6475,M,,,,0*3E
$GPRMC,153429,A,3511.6178,N,11639.9286,W,289,288,150320,0,E*71
$GPGGA,153429,3511.6178,N,11639.9286,W,1,,,6465,M,,,,0*3D
$GPRMC,153439,A,3511.8663,N,11640.8582,W,289,288,150320,0,E*7F
$GPGGA,153439,3511.8663,N,11640.8582,W,1,,,6459,M,,,,0*3C
$GPRMC,153449,A,3512.1108,N,11641.7928,W,287,287,150320,0,E*7B
$GPGGA,153449,3512.1108,N,11641.7928,W,1,,,6458,M,,,,0*38
$GPRMC,153459,A,3512.3406,N,11642.7261,W,285,287,150320,0,E*74
$GPGGA,153459,3512.3406,N,11642.7261,W,1,,,6463,M,,,,0*3D
$GPRMC,153509,A,3512.6276,N,11643.6348,W,287,295,150320,0,E*7F
$GPGGA,153509,3512.6276,N,11643.6348,W,1,,,6465,M,,,,0*31
$GPRMC,153519,A,3513.0294,N,11644.4825,W,292,305,150320,0,E*7C
$GPGGA,153519,3513.0294,N,11644.4825,W,1,,,6467,M,,,,0*3C
$GPRMC,153529,A,3513.5488,N,11645.2346,W,297,315,150320,0,E*7C
$GPGGA,153529,3513.5488,N,11645.2346,W,1,,,6470,M,,,,0*3E
$GPRMC,153529,A,3513.5562,N,11645.2435,W,297,315,150320,0,E*7A
$GPGGA,153529,3513.5562,N,11645.2435,W,1,,,6470,M,,,,0*38
$GPRMC,153539,A,3514.2134,N,11645.8828,W,305,328,150320,0,E*72
$GPGGA,153539,3514.2134,N,11645.8828,W,1,,,6470,M,,,,0*34
$GPRMC,153549,A,3514.9858,N,11646.3413,W,314,341,150320,0,E*7E
$GPGGA,153549,3514.9858,N,11646.3413,W,1,,,6470,M,,,,0*37
$GPRMC,153559,A,3515.8542,N,11646.5569,W,325,356,150320,0,E*77
$GPGGA,153559,3515.8542,N,11646.5569,W,1,,,6472,M,,,,0*38
$GPRMC,153609,A,3516.7681,N,11646.4678,W,336,13,150320,0,E*43
$GPGGA,153609,3516.7681,N,11646.4678,W,1,,,6470,M,,,,0*3E
$GPRMC,153620,A,3517.6563,N,11646.0562,W,345,29,150320,0,E*46
$GPGGA,153620,3517.6563,N,11646.0562,W,1,,,6467,M,,,,0*30
$GPRMC,153630,A,3518.4291,N,11645.3487,W,351,45,150320,0,E*45
$GPGGA,153630,3518.4291,N,11645.3487,W,1,,,6462,M,,,,0*39
$GPRMC,153640,A,3519.0239,N,11644.3938,W,353,61,150320,0,E*49
$GPGGA,153640,3519.0239,N,11644.3938,W,1,,,6462,M,,,,0*31
$GPRMC,153650,A,3519.3836,N,11643.2803,W,350,76,150320,0,E*44
$GPGGA,153650,3519.3836,N,11643.2803,W,1,,,6467,M,,,,0*3C
$GPRMC,153700,A,3519.4800,N,11642.1049,W,344,92,150320,0,E*49
$GPGGA,153700,3519.4800,N,11642.1049,W,1,,,6469,M,,,,0*30
$GPRMC,153710,A,3519.3109,N,11640.9685,W,335,109,150320,0,E*76
$GPGGA,153710,3519.3109,N,11640.9685,W,1,,,6471,M,,,,0*33
$GPRMC,153720,A,3518.9011,N,11639.9749,W,323,125,150320,0,E*70
$GPGGA,153720,3518.9011,N,11639.9749,W,1,,,6470,M,,,,0*3D
$GPRMC,153730,A,3518.2920,N,11639.1975,W,309,143,150320,0,E*70
$GPGGA,153730,3518.2920,N,11639.1975,W,1,,,6470,M,,,,0*35
$GPRMC,153740,A,3517.5503,N,11638.7145,W,295,161,150320,0,E*7A
$GPGGA,153740,3517.5503,N,11638.7145,W,1,,,6473,M,,,,0*38
$GPRMC,153750,A,3516.7636,N,11638.5251,W,285,176,150320,0,E*7E
$GPGGA,153750,3516.7636,N,11638.5251,W,1,,,6475,M,,,,0*3D
$GPRMC,153800,A,3515.9739,N,11638.5318,W,281,185,150320,0,E*73
$GPGGA,153800,3515.9739,N,11638.5318,W,1,,,6471,M,,,,0*3C
$GPRMC,153810,A,3515.2068,N,11638.6796,W,278,193,150320,0,E*7A
$GPGGA,153810,3515.2068,N,11638.6796,W,1,,,6468,M,,,,0*3C
$GPRMC,153820,A,3514.4733,N,11638.9729,W,275,203,150320,0,E*7B
$GPGGA,153820,3514.4733,N,11638.9729,W,1,,,6468,M,,,,0*3A
$GPRMC,153830,A,3513.7959,N,11639.4067,W,273,213,150320,0,E*7A
$GPGGA,153830,3513.7959,N,11639.4067,W,1,,,6470,M,,,,0*35
$GPRMC,153840,A,3513.1969,N,11639.9684,W,272,222,150320,0,E*7D
$GPGGA,153840,3513.1969,N,11639.9684,W,1,,,6473,M,,,,0*32
$GPRMC,153850,A,3512.6864,N,11640.6466,W,269,233,150320,0,E*73
$GPGGA,153850,3512.6864,N,11640.6466,W,1,,,6474,M,,,,0*31
$GPRMC,153900,A,3512.2863,N,11641.4137,W,268,243,150320,0,E*70
$GPGGA,153900,3512.2863,N,11641.4137,W,1,,,6476,M,,,,0*36
$GPRMC,153910,A,3512.0029,N,11642.2522,W,268,253,150320,0,E*71
$GPGGA,153910,3512.0029,N,11642.2522,W,1,,,6477,M,,,,0*37
$GPRMC,153920,A,3511.8437,N,11643.1460,W,270,263,150320,0,E*7D
$GPGGA,153920,3511.8437,N,11643.1460,W,1,,,6476,M,,,,0*30
$GPRMC,153930,A,3511.8306,N,11644.0616,W,273,275,150320,0,E*78
$GPGGA,153930,3511.8306,N,11644.0616,W,1,,,6476,M,,,,0*31
$GPRMC,153940,A,3511.9939,N,11644.9777,W,279,289,150320,0,E*7E
$GPGGA,153940,3511.9939,N,11644.9777,W,1,,,6475,M,,,,0*3D
$GPRMC,153950,A,3512.3442,N,11645.8404,W,287,303,150320,0,E*72
$GPGGA,153950,3512.3442,N,11645.8404,W,1,,,6472,M,,,,0*34
$GPRMC,154000,A,3512.8708,N,11646.5898,W,297,318,150320,0,E*73
$GPGGA,154000,3512.8708,N,11646.5898,W,1,,,6474,M,,,,0*38
$GPRMC,154009,A,3513.4732,N,11647.1291,W,306,330,150320,0,E*7B
$GPGGA,154009,3513.4732,N,11647.1291,W,1,,,6474,M,,,,0*33
$GPRMC,154010,A,3513.5568,N,11647.1865,W,308,331,150320,0,E*71
$GPGGA,154010,3513.5568,N,11647.1865,W,1,,,6474,M,,,,0*36
$GPRMC,154020,A,3514.3664,N,11647.5859,W,318,345,150320,0,E*75
$GPGGA,154020,3514.3664,N,11647.5859,W,1,,,6471,M,,,,0*35
$GPRMC,154031,A,3515.2576,N,11647.7586,W,328,357,150320,0,E*78
$GPGGA,154031,3515.2576,N,11647.7586,W,1,,,6472,M,,,,0*3B
$GPRMC,154041,A,3516.1850,N,11647.6907,W,337,9,150320,0,E*74
$GPGGA,154041,3516.1850,N,11647.6907,W,1,,,6471,M,,,,0*32
$GPRMC,154051,A,3517.0976,N,11647.3841,W,345,21,150320,0,E*49
$GPGGA,154051,3517.0976,N,11647.3841,W,1,,,6467,M,,,,0*37
$GPRMC,154101,A,3517.9495,N,11646.8191,W,350,36,150320,0,E*48
$GPGGA,154101,3517.9495,N,11646.8191,W,1,,,6468,M,,,,0*3B
$GPRMC,154111,A,3518.6308,N,11645.9729,W,353,55,150320,0,E*4B
$GPGGA,154111,3518.6308,N,11645.9729,W,1,,,6472,M,,,,0*35
$GPRMC,154121,A,3519.0390,N,11644.8865,W,351,76,150320,0,E*4A
$GPGGA,154121,3519.0390,N,11644.8865,W,1,,,6478,M,,,,0*3D
$GPRMC,154131,A,3519.1193,N,11643.7102,W,344,94,150320,0,E*43
$GPGGA,154131,3519.1193,N,11643.7102,W,1,,,6478,M,,,,0*3C
$GPRMC,154141,A,3518.9193,N,11642.5772,W,337,110,150320,0,E*76
$GPGGA,154141,3518.9193,N,11642.5772,W,1,,,6472,M,,,,0*3A
$GPRMC,154151,A,3518.4828,N,11641.5887,W,327,126,150320,0,E*71
$GPGGA,154151,3518.4828,N,11641.5887,W,1,,,6470,M,,,,0*3B
$GPRMC,154201,A,3517.8639,N,11640.8035,W,318,140,150320,0,E*7B
$GPGGA,154201,3517.8639,N,11640.8035,W,1,,,6471,M,,,,0*3C
$GPRMC,154211,A,3517.1461,N,11640.1795,W,314,148,150320,0,E*7C
$GPGGA,154211,3517.1461,N,11640.1795,W,1,,,6468,M,,,,0*37
$GPRMC,154221,A,3516.3819,N,11639.6851,W,309,155,150320,0,E*71
$GPGGA,154221,3516.3819,N,11639.6851,W,1,,,6468,M,,,,0*3A
$GPRMC,154231,A,3515.6005,N,11639.2266,W,310,155,150320,0,E*71
$GPGGA,154231,3515.6005,N,11639.2266,W,1,,,6465,M,,,,0*3F
$GPRMC,154241,A,3514.8118,N,11638.7998,W,306,160,150320,0,E*7B
$GPGGA,154241,3514.8118,N,11638.7998,W,1,,,6468,M,,,,0*39
$GPRMC,154251,A,3513.9984,N,11638.5335,W,297,171,150320,0,E*77
$GPGGA,154251,3513.9984,N,11638.5335,W,1,,,6475,M,,,,0*30
$GPRMC,154301,A,3513.1929,N,11638.5290,W,285,189,150320,0,E*76
$GPGGA,154301,3513.1929,N,11638.5290,W,1,,,6481,M,,,,0*3E
$GPRMC,154311,A,3512.4475,N,11638.8186,W,277,207,150320,0,E*76
$GPGGA,154311,3512.4475,N,11638.8186,W,1,,,6481,M,,,,0*36
$GPRMC,154321,A,3511.8345,N,11639.3647,W,272,225,150320,0,E*7B
$GPGGA,154321,3511.8345,N,11639.3647,W,1,,,6476,M,,,,0*36
$GPRMC,154331,A,3511.3975,N,11640.1103,W,269,244,150320,0,E*7E
$GPGGA,154331,3511.3975,N,11640.1103,W,1,,,6475,M,,,,0*3D
$GPRMC,154341,A,3511.1703,N,11640.9800,W,269,260,150320,0,E*70
$GPGGA,154341,3511.1703,N,11640.9800,W,1,,,6475,M,,,,0*35
$GPRMC,154351,A,3511.0993,N,11641.8930,W,270,268,150320,0,E*75
$GPGGA,154351,3511.0993,N,11641.8930,W,1,,,6470,M,,,,0*35
$GPRMC,154401,A,3511.1457,N,11642.8118,W,273,281,150320,0,E*76
$GPGGA,154401,3511.1457,N,11642.8118,W,1,,,6470,M,,,,0*32
$GPRMC,154411,A,3511.3837,N,11643.7011,W,281,295,150320,0,E*71
$GPGGA,154411,3511.3837,N,11643.7011,W,1,,,6472,M,,,,0*3F
$GPRMC,154421,A,3511.8005,N,11644.5225,W,291,308,150320,0,E*74
$GPGGA,154421,3511.8005,N,11644.5225,W,1,,,6470,M,,,,0*3C
$GPRMC,154431,A,3512.3780,N,11645.2401,W,300,320,150320,0,E*72
$GPGGA,154431,3512.3780,N,11645.2401,W,1,,,6471,M,,,,0*38
$GPRMC,154441,A,3513.0804,N,11645.8171,W,310,331,150320,0,E*7D
$GPGGA,154441,3513.0804,N,11645.8171,W,1,,,6470,M,,,,0*37
$GPRMC,154451,A,3513.8817,N,11646.2420,W,319,341,150320,0,E*70
$GPGGA,154451,3513.8817,N,11646.2420,W,1,,,6471,M,,,,0*35
$GPRMC,154501,A,3514.7581,N,11646.5096,W,327,350,150320,0,E*7D
$GPGGA,154501,3514.7581,N,11646.5096,W,1,,,6472,M,,,,0*36
$GPRMC,154512,A,3515.6791,N,11646.6155,W,335,359,150320,0,E*7B
$GPGGA,154512,3515.6791,N,11646.6155,W,1,,,6473,M,,,,0*3B
$GPRMC,154521,A,3516.6180,N,11646.5617,W,342,7,150320,0,E*74
$GPGGA,154521,3516.6180,N,11646.5617,W,1,,,6471,M,,,,0*3E
$GPRMC,154532,A,3517.5671,N,11646.3442,W,349,15,150320,0,E*41
$GPGGA,154532,3517.5671,N,11646.3442,W,1,,,6469,M,,,,0*3A
$GPRMC,154542,A,3518.4959,N,11645.9530,W,355,26,150320,0,E*4D
$GPGGA,154542,3518.4959,N,11645.9530,W,1,,,6471,M,,,,0*32
$GPRMC,154552,A,3519.3030,N,11645.2502,W,361,46,150320,0,E*47
$GPGGA,154552,3519.3030,N,11645.2502,W,1,,,6477,M,,,,0*3F
$GPRMC,154602,A,3519.8610,N,11644.2397,W,361,67,150320,0,E*46
$GPGGA,154602,3519.8610,N,11644.2397,W,1,,,6487,M,,,,0*32
$GPRMC,154612,A,3520.0800,N,11643.0519,W,356,88,150320,0,E*4A
$GPGGA,154612,3520.0800,N,11643.0519,W,1,,,6484,M,,,,0*38
$GPRMC,154622,A,3519.9329,N,11641.8748,W,346,108,150320,0,E*7E
$GPGGA,154622,3519.9329,N,11641.8748,W,1,,,6479,M,,,,0*36
$GPRMC,154632,A,3519.4971,N,11640.8586,W,334,125,150320,0,E*7E
$GPGGA,154632,3519.4971,N,11640.8586,W,1,,,6473,M,,,,0*36
$GPRMC,154642,A,3518.9433,N,11639.9375,W,335,127,150320,0,E*78
$GPGGA,154642,3518.9433,N,11639.9375,W,1,,,6457,M,,,,0*35
$GPRMC,154652,A,3518.3882,N,11639.0178,W,338,126,150320,0,E*7F
$GPGGA,154652,3518.3882,N,11639.0178,W,1,,,6454,M,,,,0*3D
$GPRMC,154702,A,3517.8418,N,11638.0826,W,340,125,150320,0,E*7F
$GPGGA,154702,3517.8418,N,11638.0826,W,1,,,6459,M,,,,0*3C
$GPRMC,154712,A,3517.2986,N,11637.1286,W,341,125,150320,0,E*71
$GPGGA,154712,3517.2986,N,11637.1286,W,1,,,6462,M,,,,0*3B
$GPRMC,154722,A,3516.7551,N,11636.1802,W,342,125,150320,0,E*74
$GPGGA,154722,3516.7551,N,11636.1802,W,1,,,6466,M,,,,0*39
$GPRMC,154732,A,3516.2035,N,11635.2272,W,342,125,150320,0,E*7A
$GPGGA,154732,3516.2035,N,11635.2272,W,1,,,6470,M,,,,0*30
$GPRMC,154742,A,3515.6476,N,11634.2740,W,343,126,150320,0,E*7E
$GPGGA,154742,3515.6476,N,11634.2740,W,1,,,6470,M,,,,0*36
$GPRMC,154752,A,3515.0775,N,11633.3364,W,338,130,150320,0,E*76
$GPGGA,154752,3515.0775,N,11633.3364,W,1,,,6476,M,,,,0*33
$GPRMC,154802,A,3514.3844,N,11632.6046,W,323,148,150320,0,E*71
$GPGGA,154802,3514.3844,N,11632.6046,W,1,,,6476,M,,,,0*31
$GPRMC,154812,A,3513.5729,N,11632.1911,W,309,166,150320,0,E*7D
$GPGGA,154812,3513.5729,N,11632.1911,W,1,,,6482,M,,,,0*32
$GPRMC,154822,A,3512.7320,N,11632.0975,W,297,184,150320,0,E*79
$GPGGA,154822,3512.7320,N,11632.0975,W,1,,,6482,M,,,,0*3C
$GPRMC,154832,A,3511.9370,N,11632.3123,W,288,202,150320,0,E*7B
$GPGGA,154832,3511.9370,N,11632.3123,W,1,,,6478,M,,,,0*38
$GPRMC,154842,A,3511.2559,N,11632.8027,W,281,220,150320,0,E*7D
$GPGGA,154842,3511.2559,N,11632.8027,W,1,,,6477,M,,,,0*38
$GPRMC,154852,A,3510.7452,N,11633.5162,W,278,238,150320,0,E*71
$GPGGA,154852,3510.7452,N,11633.5162,W,1,,,6478,M,,,,0*34
$GPRMC,154902,A,3510.4490,N,11634.3811,W,279,256,150320,0,E*7D
$GPGGA,154902,3510.4490,N,11634.3811,W,1,,,6478,M,,,,0*31
$GPRMC,154912,A,3510.3872,N,11635.3314,W,283,274,150320,0,E*71
$GPGGA,154912,3510.3872,N,11635.3314,W,1,,,6478,M,,,,0*38
$GPRMC,154923,A,3510.5026,N,11636.2912,W,287,281,150320,0,E*7C
$GPGGA,154923,3510.5026,N,11636.2912,W,1,,,6474,M,,,,0*37
$GPRMC,154933,A,3510.6820,N,11637.2417,W,289,284,150320,0,E*72
$GPGGA,154933,3510.6820,N,11637.2417,W,1,,,6468,M,,,,0*3F
$GPRMC,154943,A,3510.8752,N,11638.1937,W,290,284,150320,0,E*7A
$GPGGA,154943,3510.8752,N,11638.1937,W,1,,,6467,M,,,,0*30
$GPRMC,154951,A,3511.0289,N,11638.9707,W,291,283,150320,0,E*70
$GPGGA,154951,3511.0289,N,11638.9707,W,1,,,6465,M,,,,0*3E
$GPRMC,154953,A,3511.0649,N,11639.1563,W,291,283,150320,0,E*73
$GPGGA,154953,3511.0649,N,11639.1563,W,1,,,6466,M,,,,0*3E
$GPRMC,155003,A,3511.2760,N,11640.1090,W,293,288,150320,0,E*78
$GPGGA,155003,3511.2760,N,11640.1090,W,1,,,6472,M,,,,0*39
$GPRMC,155013,A,3511.5773,N,11641.0427,W,298,296,150320,0,E*70
$GPGGA,155013,3511.5773,N,11641.0427,W,1,,,6476,M,,,,0*31
$GPRMC,155023,A,3512.0402,N,11641.9010,W,307,310,150320,0,E*71
$GPGGA,155023,3512.0402,N,11641.9010,W,1,,,6477,M,,,,0*39
$GPRMC,155033,A,3512.6961,N,11642.6012,W,319,327,150320,0,E*7B
$GPGGA,155033,3512.6961,N,11642.6012,W,1,,,6479,M,,,,0*36
$GPRMC,155043,A,3513.5149,N,11643.0589,W,331,343,150320,0,E*74
$GPGGA,155043,3513.5149,N,11643.0589,W,1,,,6478,M,,,,0*30
$GPRMC,155053,A,3514.4455,N,11643.2314,W,344,359,150320,0,E*72
$GPGGA,155053,3514.4455,N,11643.2314,W,1,,,6476,M,,,,0*31
$GPRMC,155103,A,3515.4134,N,11643.1007,W,354,14,150320,0,E*4C
$GPGGA,155103,3515.4134,N,11643.1007,W,1,,,6471,M,,,,0*33
$GPRMC,155113,A,3516.3451,N,11642.6601,W,362,29,150320,0,E*42
$GPGGA,155113,3516.3451,N,11642.6601,W,1,,,6473,M,,,,0*34
$GPRMC,155123,A,3517.1616,N,11641.9192,W,368,44,150320,0,E*43
$GPGGA,155123,3517.1616,N,11641.9192,W,1,,,6475,M,,,,0*32
$GPRMC,155133,A,3517.7907,N,11640.9358,W,370,59,150320,0,E*4B
$GPGGA,155133,3517.7907,N,11640.9358,W,1,,,6473,M,,,,0*39
$GPRMC,155143,A,3518.2680,N,11639.8165,W,371,65,150320,0,E*4B
$GPGGA,155143,3518.2680,N,11639.8165,W,1,,,6468,M,,,,0*3D
$GPRMC,155153,A,3518.6649,N,11638.6521,W,372,70,150320,0,E*47
$GPGGA,155153,3518.6649,N,11638.6521,W,1,,,6461,M,,,,0*3F
$GPRMC,155203,A,3518.9935,N,11637.4453,W,373,73,150320,0,E*41
$GPGGA,155203,3518.9935,N,11637.4453,W,1,,,6461,M,,,,0*3B
$GPRMC,155213,A,3519.2402,N,11636.2196,W,372,80,150320,0,E*45
$GPGGA,155213,3519.2402,N,11636.2196,W,1,,,6464,M,,,,0*37
$GPRMC,155223,A,3519.3432,N,11634.9645,W,368,89,150320,0,E*46
$GPGGA,155223,3519.3432,N,11634.9645,W,1,,,6470,M,,,,0*33
$GPRMC,155233,A,3519.2661,N,11633.7214,W,363,100,150320,0,E*70
$GPGGA,155233,3519.2661,N,11633.7214,W,1,,,6472,M,,,,0*3C
$GPRMC,155243,A,3519.0092,N,11632.5346,W,357,110,150320,0,E*7C
